City_ID,City,Lat,Lng,Max Temp,Humidity,Cloudiness,Wind Speed,Country,Date
0,dudinka,69.4058,86.1778,-1.85,98,99,3.58,RU,1715681198
1,grytviken,-54.2811,-36.5092,-7.51,76,54,2.65,GS,1715681198
2,akwanga,8.9167,8.3833,29.29,62,100,0.36,NG,1715681198
3,oriximina,-1.7656,-55.8661,23.56,97,100,0.96,BR,1715681198
4,enewetak,11.3474,162.3373,27.54,83,87,9.54,MH,1715681198
5,korla,41.7597,86.1469,32.22,13,100,7.57,CN,1715681198
6,invercargill,-46.4,168.35,8.9,82,41,1.79,NZ,1715681148
7,port-aux-francais,-49.35,70.2167,2.75,61,97,9.57,TF,1715681199
8,tocopilla,-22.092,-70.1979,17.04,66,80,3.56,CL,1715681199
9,al bawiti,28.3492,28.8659,26.75,15,0,4.11,EG,1715681199
10,bodaybo,57.8506,114.1933,13.14,61,100,5.87,RU,1715681199
11,bethel,41.3712,-73.414,12.2,87,75,0.45,US,1715681199
12,adamstown,-25.066,-130.1015,21.56,76,0,3.74,PN,1715681200
13,edinburgh of the seven seas,-37.0676,-12.3116,13.64,88,100,12.39,SH,1715681200
14,valle de la pascua,9.2155,-66.0073,25.04,77,59,2.53,VE,1715680958
15,port elizabeth,-33.918,25.5701,27.28,63,0,2.24,ZA,1715681200
16,kem',64.9555,34.5793,5.86,92,100,3.13,RU,1715681200
17,nenjiang,49.1833,125.2167,10.55,41,88,5.39,CN,1715681201
18,puerto penasco,31.3167,-113.5333,23.28,75,2,3.58,MX,1715681201
19,whitehorse,60.7161,-135.0538,0.73,75,70,1.34,CA,1715681201
20,novyy urgal,51.0736,132.5642,5.21,95,100,1.27,RU,1715681202
21,wailua homesteads,22.0669,-159.378,23.44,90,100,3.6,US,1715681202
22,tokar,18.4254,37.729,33.76,39,2,8.26,SD,1715681034
23,blackmans bay,-43.0167,147.3167,11.52,72,72,0.89,AU,1715681202
24,lincoln,40.8,-96.667,10.65,91,0,2.57,US,1715681164
25,waitangi,-43.9535,-176.5597,9.34,82,100,0.89,NZ,1715681203
26,nemuro,43.3236,145.575,7.59,81,0,3.97,JP,1715681148
27,cockburn town,21.4612,-71.1419,26.38,85,11,8.47,TC,1715681203
28,ares,-6.1944,-35.1603,25.79,86,22,3.86,BR,1715681203
29,ibshaway,29.358,30.6814,27.56,24,0,5.13,EG,1715681002
30,puerto deseado,-47.7503,-65.8938,3.19,61,42,11.12,AR,1715681203
31,puerto natales,-51.7236,-72.4875,1.37,91,90,3.07,CL,1715681204
32,vilyuchinsk,52.9306,158.4028,5.14,74,21,12.52,RU,1715681204
33,tofol,5.3248,163.0078,28.49,80,100,7.26,FM,1715681204
34,gaigeturi,33.4644,126.3183,18.55,57,0,1.49,KR,1715681204
35,avarua,-21.2078,-159.775,25.03,78,75,4.12,CK,1715681205
36,yellowknife,62.456,-114.3525,4.67,100,77,2.24,CA,1715681205
37,hasaki,35.7333,140.8333,17.22,70,89,7.11,JP,1715681205
38,ushuaia,-54.8,-68.3,7.11,85,100,5.0,AR,1715681205
39,jiuquan,39.7432,98.5174,29.74,12,39,11.01,CN,1715681205
40,hopewell,37.3043,-77.2872,18.08,84,100,1.77,US,1715681206
41,kanggye,40.9695,126.5852,19.06,63,100,3.08,KP,1715681206
42,trinidad,-14.8333,-64.9,16.35,65,100,4.07,BO,1715681207
43,margaret river,-33.95,115.0667,18.97,60,0,4.78,AU,1715681091
44,salanso,12.1833,-4.0833,33.97,37,51,3.55,BF,1715681207
45,holualoa,19.6228,-155.9522,21.91,95,20,2.57,US,1715681207
46,weno,7.4515,151.8468,27.97,89,100,3.09,FM,1715681207
47,cabedelo,-6.9811,-34.8339,25.37,82,44,3.89,BR,1715681207
48,smithers,54.7804,-127.1743,5.51,90,100,0.68,CA,1715681208
49,hermanus,-34.4187,19.2345,23.78,38,71,3.88,ZA,1715681208
50,tual,-5.6667,132.75,28.75,78,28,8.28,ID,1715681208
51,kiunga,-6.1219,141.2906,24.59,91,87,0.97,PG,1715681208
52,palikir - national government center,6.9248,158.1611,28.41,84,100,2.57,FM,1715681209
53,papatowai,-46.5619,169.4708,7.87,77,69,2.7,NZ,1715681209
54,broken hill,-31.95,141.4333,15.59,58,72,4.09,AU,1715681002
55,bhamo,24.2667,97.2333,38.01,28,56,2.06,MM,1715681210
56,ilulissat,69.2167,-51.1,-4.99,74,75,6.17,GL,1715681210
57,punta arenas,-53.15,-70.9167,7.06,76,0,14.4,CL,1715681210
58,iqaluit,63.7506,-68.5145,-17.97,84,3,2.98,CA,1715681211
59,neiafu,-18.65,-173.9833,26.45,83,100,10.47,TO,1715681211
60,emerald,-23.5333,148.1667,20.55,28,6,4.1,AU,1715681175
61,kulmbach,50.1,11.45,23.62,61,0,1.79,DE,1715681211
62,leh,34.1667,77.5833,8.86,30,5,0.24,IN,1715681211
63,kingston,17.997,-76.7936,24.53,87,100,1.36,JM,1715681212
64,badger,64.8,-147.5333,5.14,92,100,0.0,US,1715681212
65,ribeira grande,38.5167,-28.7,17.22,59,75,4.92,PT,1715681212
66,la ronge,55.1001,-105.2842,5.61,78,100,3.61,CA,1715681212
67,albany,42.6001,-73.9662,14.06,79,84,2.17,US,1715681212
68,hithadhoo,-0.6,73.0833,28.65,80,95,5.94,MV,1715681213
69,nelson bay,-32.7167,152.15,17.22,80,0,3.7,AU,1715680980
70,asuncion nochixtlan,17.4667,-97.2333,15.57,75,49,1.9,MX,1715681213
71,qaqortoq,60.7167,-46.0333,1.8,85,100,0.57,GL,1715681213
72,elverum,60.8819,11.5623,20.57,34,89,4.38,NO,1715681214
73,gap,44.6667,6.0,6.57,89,100,1.88,FR,1715681214
74,tazovsky,67.4667,78.7,-2.65,84,100,7.24,RU,1715681214
75,at-bashi,41.1702,75.8106,21.85,13,15,1.14,KG,1715680973
76,bredasdorp,-34.5322,20.0403,26.1,29,3,2.23,ZA,1715681214
77,aasiaat,68.7098,-52.8699,-7.43,76,36,5.2,GL,1715681214
78,xilin hot,43.9667,116.0333,12.5,14,48,10.27,CN,1715681215
79,lebanon,36.2081,-86.2911,19.12,89,100,1.54,US,1715681215
80,igarka,67.4667,86.5833,0.01,83,99,6.26,RU,1715681215
81,college,64.8569,-147.8028,5.18,92,100,0.0,US,1715681216
82,isafjordur,66.0755,-23.124,4.02,65,0,3.09,IS,1715681216
83,el calafate,-50.3408,-72.2768,1.35,60,2,4.65,AR,1715681216
84,palmas,-10.2128,-48.3603,23.93,88,0,0.51,BR,1715681216
85,huaicheng,23.9051,112.1931,28.22,62,21,1.37,CN,1715681216
86,san jose del guaviare,2.5729,-72.6459,22.61,99,100,0.8,CO,1715680917
87,vytegra,61.0064,36.4481,9.64,50,42,2.24,RU,1715681217
88,shwebo,22.5667,95.7,41.49,19,1,3.58,MM,1715681217
89,margate,51.3813,1.3862,15.39,90,100,3.13,GB,1715681218
90,stanley,54.868,-1.6985,17.62,85,20,4.12,GB,1715681218
91,fale old settlement,-9.3852,-171.2468,29.3,78,99,7.25,TK,1715681218
92,carnarvon,-24.8667,113.6333,22.97,62,1,3.44,AU,1715681218
93,maceio,-9.6658,-35.7353,25.69,94,0,2.06,BR,1715681218
94,wajir,1.7471,40.0573,33.04,44,99,6.96,KE,1715681042
95,harnai,30.1005,67.9374,34.77,13,0,3.47,PK,1715681218
96,madang,-5.2246,145.7966,26.0,91,100,1.84,PG,1715681046
97,shantobe,52.4581,68.1839,11.5,58,100,5.86,KZ,1715681219
98,bilibino,68.0546,166.4372,-3.66,93,100,2.97,RU,1715681219
99,hofu,34.05,131.5667,18.98,65,0,1.44,JP,1715681219
100,lepsy,46.235,78.9456,27.04,19,78,1.84,KZ,1715681220
101,lazaro cardenas,17.9583,-102.2,23.15,87,4,1.25,MX,1715681220
102,tateyama,34.9833,139.8667,18.94,78,97,5.91,JP,1715681220
103,puerto baquerizo moreno,-0.9,-89.6,22.55,92,40,2.77,EC,1715681220
104,hamilton,39.1834,-84.5333,16.54,94,100,2.57,US,1715681220
105,devarkonda,16.7,78.9333,36.22,35,67,1.64,IN,1715681084
106,guane,22.2025,-84.0875,26.46,86,88,4.64,CU,1715681221
107,vicuna,-30.0319,-70.7081,16.85,30,100,1.79,CL,1715681222
108,alice springs,-23.7,133.8833,18.75,45,10,3.09,AU,1715681222
109,afif,23.9065,42.9172,35.62,11,0,4.03,SA,1715681223
110,tindouf,27.6711,-8.1474,29.83,24,0,5.08,DZ,1715681223
111,mount pearl,47.5166,-52.7813,6.29,96,100,3.13,CA,1715681223
112,port alfred,-33.5906,26.891,23.43,74,0,1.79,ZA,1715680944
113,port lincoln,-34.7333,135.8667,14.47,85,96,3.0,AU,1715681223
114,labuan,5.2767,115.2417,29.91,71,66,3.68,MY,1715681224
115,cabo san lucas,22.8909,-109.9124,22.09,63,1,5.16,MX,1715681224
116,caconda,-13.7333,15.0667,28.0,22,4,1.56,AO,1715681224
117,ancud,-41.8697,-73.8203,3.76,88,1,2.85,CL,1715681225
118,kununurra,-15.7667,128.7333,28.99,42,6,2.57,AU,1715681090
119,nagar karnul,16.4821,78.3247,34.65,36,90,1.86,IN,1715681083
120,port-vila,-17.7338,168.3219,24.94,86,99,7.58,VU,1715681091
121,puerto ayora,-0.7393,-90.3518,22.47,93,69,2.08,EC,1715681226
122,sassandra,4.95,-6.0833,28.31,82,100,2.4,CI,1715681135
123,edson,53.5835,-116.4356,4.31,86,38,1.53,CA,1715681226
124,ulsteinvik,62.3432,5.8487,19.5,54,100,1.9,NO,1715681227
125,anadyr,64.75,177.4833,0.28,100,100,7.0,RU,1715681227
126,tvoroyri,61.5556,-6.8111,8.01,97,100,9.6,FO,1715681227
127,fresnillo,23.1667,-102.8833,14.75,27,0,2.14,MX,1715681228
128,khandyga,62.6667,135.6,4.23,78,87,2.41,RU,1715681228
129,polyarnyy,69.1989,33.4478,3.5,100,100,3.77,RU,1715681228
130,fortuna,40.5982,-124.1573,11.48,95,100,0.0,US,1715681229
131,lionel town,17.8101,-77.2406,24.94,86,87,3.87,JM,1715681229
132,talbahat,25.05,78.4333,42.28,11,100,4.85,IN,1715681229
133,birmitrapur,22.4,84.7667,41.79,13,43,4.83,IN,1715681229
134,springs,-26.25,28.4,19.08,81,3,0.12,ZA,1715681229
135,kavieng,-2.5744,150.7967,28.05,81,99,3.98,PG,1715681230
136,itoman,26.1247,127.6694,23.01,83,75,2.57,JP,1715681230
137,tosontsengel,48.7567,98.2839,19.22,36,100,2.45,MN,1715681230
138,neryungri,56.6709,124.6491,1.77,93,84,2.16,RU,1715681230
139,longyearbyen,78.2186,15.6401,0.91,69,75,2.57,SJ,1715681230
140,djibouti,11.5,42.5,33.05,49,69,6.19,DJ,1715681231
141,puerto la cruz,10.2167,-64.6167,25.2,83,79,1.15,VE,1715681231
142,dongola,19.1667,30.4833,37.37,8,2,7.85,SD,1715681231
143,tchaourou,8.8865,2.5975,29.84,64,99,1.95,BJ,1715681231
144,novozybkov,52.5396,31.9275,11.67,46,68,3.06,RU,1715681231
145,phang nga,8.4509,98.5298,33.02,80,99,1.9,TH,1715681061
146,guilin,25.2819,110.2864,28.86,57,6,0.52,CN,1715681232
147,gobabis,-22.45,18.9667,24.77,24,13,6.82,NA,1715681232
148,tabou,4.423,-7.3528,27.4,84,100,4.27,CI,1715681232
149,nova vicosa,-17.8919,-39.3719,23.76,86,19,3.18,BR,1715681233
150,labuan bajo,-8.4964,119.8877,26.42,77,60,0.18,ID,1715681233
151,fort mcmurray,56.7268,-111.381,8.23,86,72,1.81,CA,1715681233
152,san ignacio,17.1561,-89.0714,27.08,89,0,2.06,BZ,1715680939
153,bikenibeu village,1.3673,173.1241,28.98,79,20,4.12,KI,1715681233
154,al jawf,29.5,38.75,24.81,20,0,1.22,SA,1715681233
155,queenstown,-31.8976,26.8753,25.85,24,0,5.11,ZA,1715680811
156,yuzhno-kurilsk,44.0306,145.8556,9.1,80,6,3.39,RU,1715681234
157,kupino,54.3663,77.2981,21.64,56,100,9.57,RU,1715681234
158,shakawe,-18.3667,21.85,28.77,27,10,3.83,BW,1715681234
159,ghat,24.9647,10.1728,37.87,9,7,5.56,LY,1715681002
160,juegang,32.3174,121.1855,19.47,67,0,5.77,CN,1715681235
161,paita,-5.0892,-81.1144,19.84,82,76,4.94,PE,1715680967
162,salahonda,2.1019,-78.7217,26.66,86,100,6.92,CO,1715681235
163,ifrane,33.3333,-5.25,17.09,42,1,4.63,MA,1715681235
164,port mathurin,-19.6833,63.4167,25.45,66,64,5.26,MU,1715681235
165,thompson,55.7435,-97.8558,-0.44,62,57,2.5,CA,1715681235
166,klyuchi,52.2667,79.1667,25.62,35,83,7.65,RU,1715681236
167,castillos,-34.1667,-53.8333,7.68,83,13,5.0,UY,1715681236
168,santo antonio do ica,-3.1022,-67.9397,23.03,99,54,0.9,BR,1715681236
169,malanje,-9.5402,16.341,28.63,37,85,2.15,AO,1715681236
170,dunedin,-45.8742,170.5036,8.78,96,24,1.34,NZ,1715681118
171,howrah,22.5892,88.3103,35.0,59,40,3.09,IN,1715681025
172,arquitecto tomas romero pereira,-26.4833,-55.25,9.34,97,100,2.81,PY,1715681237
173,cadale,2.7603,46.3222,30.35,71,80,9.23,SO,1715681237
174,ust-nera,64.5667,143.2,-0.66,72,34,1.43,RU,1715681237
175,quellon,-43.1167,-73.6167,3.44,85,9,2.69,CL,1715681237
176,machico,32.7,-16.7667,20.62,70,75,6.17,PT,1715681237
177,caninde de sao francisco,-9.66,-37.7894,24.77,85,85,1.22,BR,1715681237
178,esmeraldas,-19.7625,-44.3139,19.85,65,0,0.54,BR,1715681238
179,remire-montjoly,4.9167,-52.2667,25.02,100,75,1.03,GF,1715681238
180,antofagasta,-23.65,-70.4,14.9,78,89,1.72,CL,1715681238
181,kavaratti,10.5669,72.642,30.04,72,49,2.23,IN,1715680956
182,howard springs,-12.497,131.047,28.95,76,25,1.09,AU,1715681238
183,hotan,37.0997,79.9269,32.18,4,0,7.92,CN,1715681239
184,kitimat,54.0524,-128.6534,8.84,43,100,3.58,CA,1715681239
185,hami,42.8,93.45,35.9,7,87,11.37,CN,1715681112
186,dryden,49.7833,-92.7503,1.94,85,11,2.11,CA,1715681239
187,kaoma,-14.7833,24.8,27.75,30,68,4.13,ZM,1715681240
188,kasongo-lunda,-6.4667,16.8167,33.8,46,80,0.35,CD,1715681240
189,island harbour,50.724,-1.2758,16.2,85,100,5.81,GB,1715681240
190,sitka,57.0531,-135.33,6.94,87,100,2.57,US,1715681240
191,los palacios,22.5872,-83.2486,25.79,84,75,3.39,CU,1715681240
192,atafu village,-8.5421,-172.5159,29.44,77,57,7.16,TK,1715681241
193,thief river falls,48.1191,-96.1812,7.53,71,73,3.92,US,1715681241
194,ust-tsilma,65.441,52.1498,0.34,87,100,2.68,RU,1715681241
195,vorkuta,67.5,64.0,-4.94,85,100,5.36,RU,1715681242
196,mount gambier,-37.8333,140.7667,8.51,87,36,0.37,AU,1715681075
197,ushtobe,45.2514,77.9838,30.75,16,70,0.45,KZ,1715681242
198,east london,-33.0153,27.9116,24.43,60,5,8.88,ZA,1715681242
199,vorgashor,67.5833,63.95,-5.11,85,99,4.27,RU,1715681242
200,fort bragg,35.139,-79.006,18.44,91,100,1.54,US,1715681027
201,galliano,29.4422,-90.2992,23.0,83,0,6.17,US,1715681243
202,anse-bertrand,16.4721,-61.5078,24.9,74,54,5.28,GP,1715681243
203,olonkinbyen,70.9221,-8.7187,0.45,98,100,3.63,SJ,1715681244
204,naze,28.3667,129.4833,21.39,79,100,3.56,JP,1715681137
205,hawaiian paradise park,19.5933,-154.9731,21.73,96,75,2.57,US,1715681245
206,sandnessjoen,66.0217,12.6316,20.29,52,0,1.54,NO,1715681245
207,manadhoo,5.7667,73.3833,28.64,79,99,6.98,MV,1715681245
208,eyl,7.9803,49.8164,32.43,58,98,6.79,SO,1715681245
209,argo,37.6333,22.7333,21.53,56,91,3.95,GR,1715681245
210,galle,6.0367,80.217,30.02,72,100,5.11,LK,1715681246
211,orzysz,53.8097,21.9481,17.42,56,33,3.56,PL,1715681247
212,al kharijah,25.4514,30.5464,30.05,15,2,6.14,EG,1715681247
213,mendi,-6.1761,143.6513,15.09,99,93,0.49,PG,1715681247
214,kargopol',61.5071,38.9456,11.49,38,24,0.63,RU,1715681248
215,seydi,39.4816,62.9137,36.37,16,93,7.98,TM,1715681172
216,pangody,65.85,74.4859,-0.81,84,97,7.11,RU,1715681248
217,tobelo,1.7284,128.0095,28.73,81,50,2.85,ID,1715681248
218,senekal,-28.3197,27.6208,22.12,34,1,0.98,ZA,1715681248
219,san borja,-14.8167,-66.85,15.91,85,100,2.95,BO,1715681249
220,okhotsk,59.3833,143.3,5.89,71,6,3.15,RU,1715681249
221,petropavlovsk-kamchatsky,53.0452,158.6483,4.32,75,15,17.43,RU,1715681250
222,talnakh,69.4865,88.3972,-2.11,95,100,3.69,RU,1715681152
223,plettenberg bay,-34.0527,23.3716,25.55,44,0,0.85,ZA,1715680951
224,tulun,54.5611,100.5792,24.58,25,30,3.62,RU,1715681250
225,sedalia,38.7045,-93.2283,15.95,88,100,1.54,US,1715681250
226,seaside,36.6111,-121.8516,12.07,88,100,2.57,US,1715681251
227,pekan,3.4836,103.3996,30.3,71,72,3.49,MY,1715681251
228,daru,-9.0763,143.2092,25.93,89,92,3.9,PG,1715681251
229,kodiak,57.79,-152.4072,0.73,93,0,2.57,US,1715681251
230,new norfolk,-42.7826,147.0587,12.18,76,81,1.89,AU,1715681252
231,tondi,9.7333,79.0167,32.94,55,53,4.58,IN,1715681252
232,moyo,3.6609,31.7247,30.38,44,94,2.34,UG,1715681253
233,sunchales,-30.944,-61.5615,5.59,78,8,2.42,AR,1715681253
234,west island,-12.1568,96.8225,28.99,79,40,5.66,CC,1715681253
235,darwin,-12.4611,130.8418,28.99,62,0,3.6,AU,1715681125
236,zalingei,12.9096,23.4741,37.43,10,95,4.45,SD,1715681160
237,kone,-21.0595,164.8658,21.98,84,1,1.65,NC,1715681253
238,lebu,-37.6167,-73.65,6.58,76,0,3.69,CL,1715681254
239,plymouth,41.8334,-70.8328,11.7,87,100,1.54,US,1715681254
240,kuanda,56.3161,116.0806,13.24,35,76,3.93,RU,1715681254
241,obra,24.4167,82.9833,41.71,13,15,4.22,IN,1715681083
242,urk,52.6625,5.6014,26.21,53,6,7.71,NL,1715681254
243,burela de cabo,43.65,-7.4,13.98,82,81,8.06,ES,1715681255
244,afaahiti,-17.75,-149.2833,23.93,71,45,10.01,PF,1715681255
245,aleksandrovsk-sakhalinskiy,50.8975,142.1561,8.65,77,43,3.15,RU,1715681255
246,almeirim,-1.5233,-52.5817,23.56,98,100,1.12,BR,1715680961
247,kruisfontein,-34.0033,24.7314,26.05,28,0,4.6,ZA,1715681256
248,opuwo,-18.0607,13.84,29.33,19,4,6.47,NA,1715681256
249,kapa'a,22.0752,-159.319,24.18,90,100,3.6,US,1715681256
250,carutapera,-1.195,-46.02,25.56,94,72,2.04,BR,1715681256
251,udachny,66.4167,112.4,3.03,99,100,10.07,RU,1715681257
252,atherton,53.5237,-2.4935,16.27,94,100,0.89,GB,1715681257
253,guerrero negro,27.9769,-114.0611,14.9,90,49,5.77,MX,1715681257
254,ta`u,-14.2336,-169.5144,29.13,75,100,9.02,AS,1715681258
255,bubaque,11.2833,-15.8333,25.89,78,24,3.43,GW,1715681258
256,aioun,16.6614,-9.6149,38.06,17,32,4.36,MR,1715681258
257,la'ie,21.6477,-157.9253,23.98,94,9,3.11,US,1715681258
258,constantia,44.1833,28.65,17.61,64,78,3.52,RO,1715681259
259,lihue,21.9789,-159.3672,23.77,86,100,3.6,US,1715681259
260,greenville,35.6127,-77.3663,20.09,95,100,0.45,US,1715681260
261,cooper's town,26.8667,-77.5167,25.77,83,99,11.23,BS,1715681260
262,cururupu,-1.8283,-44.8683,24.92,96,100,1.0,BR,1715681053
263,villa de arista,22.65,-100.8333,18.45,21,4,1.76,MX,1715681260
264,lompoc,34.6391,-120.4579,12.1,95,100,2.57,US,1715681260
265,novodvinsk,64.4165,40.8122,9.86,75,96,2.72,RU,1715681260
266,gadzhiyevo,69.2551,33.3362,3.29,100,100,3.78,RU,1715681261
267,nyurba,63.2842,118.3319,4.65,96,100,4.71,RU,1715681261
268,vadso,70.0744,29.7487,11.49,93,20,3.09,NO,1715681261
269,nevada,39.2502,-116.7512,9.74,49,10,0.37,US,1715681261
270,gidole,5.65,37.3667,20.91,60,94,1.91,ET,1715681262
271,salekhard,66.53,66.6019,-2.0,79,71,2.24,RU,1715681262
272,suzun,53.7841,82.3116,26.65,25,94,5.72,RU,1715681262
273,pilar do sul,-23.8131,-47.7164,17.44,96,89,2.77,BR,1715681262
274,kapuskasing,49.4169,-82.4331,1.08,84,100,2.79,CA,1715681262
275,nadi,-17.8,177.4167,26.0,78,75,4.12,FJ,1715681263
276,nabinagar,23.8917,90.9733,35.07,33,36,1.24,BD,1715681263
277,happy valley-goose bay,53.3168,-60.3315,4.86,76,55,1.33,CA,1715681263
278,orsa,54.5153,30.4053,12.78,57,49,1.36,BY,1715681263
279,nguruka,-5.1092,31.0419,27.84,46,66,3.33,TZ,1715681264
280,san jose,37.3394,-121.895,13.93,84,100,1.54,US,1715681264
281,louga,58.7372,29.8453,17.44,43,82,1.36,RU,1715681063
282,kpandae,8.4689,-0.0113,31.42,57,93,2.46,GH,1715681019
283,silver city,32.7701,-108.2803,12.95,39,0,5.14,US,1715681264
284,latakia,35.5148,35.7768,22.1,72,5,6.69,SY,1715681264
285,muar,2.0442,102.5689,31.69,76,94,1.6,MY,1715681265
286,vila velha,-20.3297,-40.2925,22.97,94,0,0.0,BR,1715681265
287,pingshan,22.9938,114.7131,24.51,71,27,3.03,CN,1715681265
288,soissons,49.3333,3.3333,13.7,95,100,3.52,FR,1715681265
289,murghob,38.1702,73.9667,9.69,24,3,2.8,TJ,1715681266
290,utrik,11.2278,169.8474,27.38,83,67,9.27,MH,1715681266
291,vanino,49.0869,140.2543,8.85,92,100,1.47,RU,1715681266
292,guiuan,11.0333,125.7247,29.22,73,19,4.99,PH,1715680800
293,naracoorte,-36.9579,140.7383,10.29,71,72,2.45,AU,1715681267
294,roggiano gravina,39.6182,16.1597,22.59,48,72,1.03,IT,1715681267
295,alofi,-19.0595,-169.9187,24.94,94,75,6.69,NU,1715681268
296,bereeda,11.8704,51.0579,34.09,54,23,5.78,SO,1715681268
297,buka,40.8108,69.1986,36.63,13,20,1.64,UZ,1715681268
298,myeik,12.4333,98.6,31.8,61,64,4.71,MM,1715681268
299,codrington,-38.2667,141.9667,10.32,80,7,1.46,AU,1715681268
300,kafir qala,34.6667,61.0667,37.98,9,78,10.19,AF,1715681268
301,klaksvik,62.2266,-6.589,10.51,98,100,7.67,FO,1715681269
302,falmouth,50.1544,-5.0711,14.5,92,100,9.39,GB,1715681100
303,coquimbo,-29.9533,-71.3436,13.26,75,100,1.85,CL,1715681270
304,haimen,23.1935,116.6142,22.14,68,2,5.44,CN,1715681270
305,oyama,36.3,139.8,18.15,57,0,2.8,JP,1715681015
306,bay roberts,47.5999,-53.2648,6.95,97,100,2.24,CA,1715681270
307,razampeta,14.1833,79.1667,39.22,27,67,5.6,IN,1715681061
308,sinop,41.7711,34.8709,10.24,60,72,2.38,TR,1715681270
309,puerto madero,14.7208,-92.4215,26.11,78,40,0.0,MX,1715681270
310,caninde,-4.3589,-39.3117,24.45,88,61,1.48,BR,1715680975
311,twon-brass,4.3151,6.2418,28.63,77,100,2.84,NG,1715681271
312,puerto rico,-26.796,-55.024,11.13,93,100,2.15,AR,1715681271
313,cosala,24.4125,-106.6908,20.13,48,0,1.76,MX,1715681271
314,santa ana,33.7456,-117.8678,16.14,82,100,2.06,US,1715681272
315,djenne,13.9061,-4.5533,35.07,35,96,5.3,ML,1715681272
316,rabat,33.9911,-6.8401,18.91,100,75,2.06,MA,1715681230
317,chonchi,-42.6128,-73.8092,-0.44,96,11,0.96,CL,1715681273
318,tiksi,71.6872,128.8694,-7.84,94,98,4.41,RU,1715681273
319,quang ngai,15.1167,108.8,29.17,73,100,2.52,VN,1715681048
320,borba,-4.3878,-59.5939,22.91,99,69,0.78,BR,1715681273
321,show low,34.2542,-110.0298,10.16,37,0,2.57,US,1715681274
322,dickinson,29.4608,-95.0513,20.55,95,0,0.0,US,1715681274
323,hit,33.6416,42.8251,29.01,22,0,4.08,IQ,1715681274
324,alnwick,55.4132,-1.7056,15.05,88,100,2.57,GB,1715681274
325,adam,22.3756,57.5233,36.88,17,3,3.97,OM,1715681274
326,mhamid,29.82,-5.72,33.54,10,3,1.28,MA,1715681275
327,gettysburg,39.8309,-77.2311,15.56,94,91,2.24,US,1715680982
328,st. john's,47.5649,-52.7093,6.75,96,100,3.13,CA,1715681275
329,onguday,50.75,86.15,18.43,56,78,0.14,RU,1715681275
330,dalandzadgad,43.5708,104.425,17.18,6,22,6.84,MN,1715680988
331,aripuana,-9.1667,-60.6333,22.16,97,70,0.7,BR,1715681276
332,port alberni,49.2413,-124.8028,10.48,91,97,0.45,CA,1715681276
333,saint-francois,46.4154,3.9054,15.52,91,100,3.09,FR,1715681276
334,presidente dutra,-5.29,-44.49,23.72,89,97,0.92,BR,1715681276
335,charters towers,-20.1,146.2667,21.52,74,50,4.41,AU,1715681276
336,kristiansund,63.1115,7.732,21.36,32,0,2.57,NO,1715681276
337,zhangjiakou,40.81,114.8794,16.76,22,100,2.49,CN,1715681140
338,tonghae,37.5439,129.1069,18.67,65,0,2.8,KR,1715680994
339,rinconada,19.35,-96.5167,26.25,57,76,1.62,MX,1715681277
340,charlotte amalie,18.3419,-64.9307,25.37,73,99,5.97,VI,1715681277
341,dubbo,-32.25,148.6167,11.07,82,8,1.54,AU,1715680619
342,yanam,16.7333,82.2167,33.93,51,8,4.27,IN,1715681278
343,la passe,45.5549,-0.8967,16.34,76,98,7.7,FR,1715681278
344,bearsden,55.9154,-4.3328,16.73,88,75,6.71,GB,1715681278
345,panaba,21.2833,-88.2667,25.67,89,84,5.43,MX,1715681278
346,yerofey pavlovich,53.9667,121.9667,10.46,34,21,3.55,RU,1715681278
347,lucapa,-8.4192,20.7447,31.7,29,26,2.62,AO,1715681279
348,dongkan,33.9997,119.8308,24.11,57,0,2.13,CN,1715681279
349,haiku-pauwela,20.9219,-156.3051,22.8,89,0,0.89,US,1715681279
350,shache,38.4167,77.2406,33.09,4,0,5.39,CN,1715681279
351,katsuren-haebaru,26.3369,127.8719,23.01,88,40,2.57,JP,1715681138
352,dalnegorsk,44.5604,135.5701,12.32,85,100,0.8,RU,1715681280
353,balasore,21.4942,86.9317,30.47,66,30,5.26,IN,1715681280
354,usinsk,65.9939,57.5281,-3.29,95,100,6.71,RU,1715681280
355,la oliva,28.6105,-13.9291,20.66,68,75,7.72,ES,1715681280
356,livingston,55.9029,-3.5226,16.74,88,20,6.17,GB,1715681281
357,gokwe,-18.2048,28.9349,25.12,30,0,3.54,ZW,1715681281
358,taltal,-25.4,-70.4833,14.96,76,100,0.21,CL,1715681281
359,san andres,12.5847,-81.7006,29.01,79,20,5.66,CO,1715681281
360,peace river,56.2501,-117.286,9.25,62,59,3.58,CA,1715681282
361,westport,41.1415,-73.3579,12.67,86,0,0.0,US,1715681282
362,hobyo,5.3505,48.5268,31.52,64,19,7.92,SO,1715681282
363,crane,31.3974,-102.3501,19.88,44,0,3.3,US,1715681282
364,florenville,49.6998,5.3074,18.83,70,57,4.08,BE,1715681283
365,markovo,57.3206,107.0881,20.19,27,90,4.29,RU,1715681283
366,grandview,38.8858,-94.533,15.86,96,75,3.09,US,1715681283
367,nabire,-3.3667,135.4833,27.16,86,100,0.91,ID,1715681283
368,tanabe,33.7333,135.3667,16.14,80,49,0.53,JP,1715681283
369,xinpu,34.5997,119.1594,25.47,47,0,3.6,CN,1715681284
370,vilhena,-12.7406,-60.1458,19.33,93,71,1.84,BR,1715681284
371,nizhneudinsk,54.9076,99.0276,26.35,22,52,2.82,RU,1715681284
372,catriel,-37.8791,-67.7956,4.67,69,28,3.69,AR,1715681285
373,minas de marcona,-15.2119,-75.1103,14.27,84,72,4.19,PE,1715681285
374,iglino,54.8324,56.4126,10.05,42,97,4.43,RU,1715681286
375,launceston,-41.45,147.1667,11.56,70,40,5.14,AU,1715681106
376,fort st. john,56.2499,-120.8529,7.97,57,100,3.17,CA,1715681286
377,namie,37.4833,141.0,12.77,87,0,0.9,JP,1715681140
378,verkhovazh'ye,60.7472,42.0465,6.19,37,19,1.7,RU,1715681286
379,nizhneangarsk,55.7833,109.55,4.45,57,61,2.24,RU,1715681286
380,bengkulu,-3.8004,102.2655,28.48,78,79,0.74,ID,1715680943
381,wynyard,-41.0,145.7167,10.92,89,86,2.95,AU,1715681286
382,walvis bay,-22.9575,14.5053,28.28,29,54,1.09,NA,1715681255
383,egilsstadir,65.2653,-14.3948,4.91,64,55,2.15,IS,1715681287
384,lerwick,60.1545,-1.1494,13.0,90,100,8.23,GB,1715681287
385,sitia,35.2,26.0986,23.32,63,0,3.16,GR,1715681287
386,celestun,20.8667,-90.4,26.9,76,34,7.3,MX,1715681287
387,pangai,-19.8,-174.35,26.5,80,100,9.61,TO,1715681287
388,keflavik,64.0049,-22.5624,6.24,70,40,5.66,IS,1715681288
389,manghit,42.1156,60.0597,23.8,54,95,3.26,UZ,1715681288
390,smiltene,57.4244,25.9016,15.73,58,93,2.23,LV,1715681288
391,petrolina,-9.3986,-40.5008,26.03,78,0,0.51,BR,1715681288
392,jamestown,42.097,-79.2353,15.77,78,0,3.6,US,1715681289
393,coahuayana de hidalgo,18.7,-103.6583,21.44,71,2,1.2,MX,1715681289
394,meadow lake,34.8014,-106.5436,15.56,46,9,2.4,US,1715681289
395,geneina,13.45,22.45,38.44,9,93,6.92,SD,1715680996
396,kuhdasht,33.535,47.6061,23.89,25,0,4.64,IR,1715681289
397,port douglas,-16.4833,145.4667,24.1,87,43,5.77,AU,1715681290
398,sao miguel do araguaia,-13.275,-50.1628,21.3,68,3,2.03,BR,1715681290
399,vilyuysk,63.7553,121.6247,6.11,48,100,2.68,RU,1715681290
400,bhimunipatnam,17.8833,83.4333,34.73,65,13,6.69,IN,1715681290
401,susuman,62.7833,148.1667,-0.01,84,92,3.58,RU,1715681291
402,huntsville,34.7304,-86.5861,19.32,90,100,3.09,US,1715681291
403,jiexiu,37.0244,111.9125,31.47,14,0,2.76,CN,1715681291
404,papao,-17.75,-149.55,24.82,72,8,11.04,PF,1715681291
405,acapulco de juarez,16.8634,-99.8901,24.9,83,40,0.0,MX,1715681176
406,selkirk,50.1436,-96.8845,8.37,83,78,0.45,CA,1715681292
407,quelimane,-17.8786,36.8883,28.54,47,1,3.95,MZ,1715681189
408,saipan,15.1355,145.701,29.39,74,0,4.12,MP,1715681117
409,luderitz,-26.6481,15.1594,22.5,51,1,4.27,NA,1715681147
410,side,36.7667,31.3885,23.29,42,6,4.26,TR,1715681292
411,rosales,15.8944,120.6328,29.91,80,100,3.63,PH,1715681293
412,le mars,42.7942,-96.1656,10.76,87,0,2.06,US,1715681293
413,smirnovo,54.5125,69.4222,12.01,43,100,5.78,KZ,1715680996
414,magong,23.5654,119.5863,23.39,86,2,10.42,TW,1715681293
415,huarmey,-10.0681,-78.1522,18.73,88,70,1.91,PE,1715681293
416,labytnangi,66.6572,66.4183,-2.01,79,66,1.98,RU,1715681294
417,gebeit,21.0667,36.3167,34.21,16,0,2.37,SD,1715681294
418,bamboo flat,11.7,92.7167,32.05,70,40,3.09,IN,1715681294
419,kabansk,52.0486,106.6528,20.67,30,4,1.14,RU,1715681294
420,kyren,51.6828,102.1408,24.97,16,66,2.68,RU,1715681294
421,ketchikan,55.3422,-131.6461,9.26,93,100,4.12,US,1715681294
422,kili,5.6439,169.1211,28.39,79,100,4.68,MH,1715681294
423,ust'-ilimsk,58.0006,102.6619,20.24,27,99,5.36,RU,1715681295
424,guiratinga,-16.3494,-53.7583,17.27,90,0,1.02,BR,1715681295
425,kirakira,-10.4544,161.9205,27.2,88,100,5.33,SB,1715681295
426,ceeldheer,3.8488,47.1806,33.14,56,72,8.03,SO,1715681155
427,kisangani,0.5167,25.2,33.16,49,100,2.18,CD,1715681057
428,touros,-5.1989,-35.4608,26.37,87,96,4.49,BR,1715681295
429,alakurtti,66.9672,30.3491,3.01,100,100,0.41,RU,1715681296
430,evanston,42.0411,-87.6901,14.76,89,100,4.63,US,1715681296
431,yolbasi,37.3889,41.3171,18.09,50,27,4.06,TR,1715681296
432,san luis rio colorado,32.4631,-114.7767,23.83,27,1,4.32,MX,1715681297
433,newman,37.3138,-121.0208,17.36,76,62,2.24,US,1715681297
434,viisoara,46.55,23.9167,18.54,51,18,2.63,RO,1715681297
435,horsham,51.064,-0.3272,15.7,83,75,4.12,GB,1715681119
436,kittila,67.6647,24.8936,2.97,100,100,1.43,FI,1715681298
437,opava,49.9387,17.9026,20.9,100,4,1.79,CZ,1715681298
438,praia da vitoria,38.7333,-27.0667,16.53,68,93,5.62,PT,1715681299
439,georgetown,5.4112,100.3354,30.96,79,20,2.06,MY,1715681299
440,olinda,-8.0089,-34.8553,26.85,94,40,2.06,BR,1715681299
441,cidreira,-30.1811,-50.2056,12.86,74,76,5.07,BR,1715681299
442,colonia menno,-22.3667,-59.8167,13.05,77,100,5.46,PY,1715681300
443,midland,31.9974,-102.0779,18.05,62,0,0.0,US,1715681301
444,santa cruz,-17.8,-63.1667,12.72,72,100,6.76,BO,1715681301
445,tralee,52.2704,-9.7026,12.14,87,75,2.06,IE,1715681301
446,rio hato,8.3833,-80.1667,28.04,87,100,3.67,PA,1715681302
447,trairi,-3.2778,-39.2689,25.05,93,45,2.34,BR,1715681302
448,zhangye,38.9342,100.4517,29.57,14,1,10.04,CN,1715681302
449,ola,59.5833,151.2833,3.97,87,94,0.9,RU,1715681303
450,vila franca do campo,37.7167,-25.4333,18.27,99,80,3.69,PT,1715681303
451,tidjikja,18.5564,-11.4271,36.23,11,76,5.53,MR,1715681304
452,estrela,-28.0611,-50.9383,8.59,96,100,2.68,BR,1715681304
453,freetown,8.484,-13.2299,29.69,73,100,2.36,SL,1715681304
454,cromwell,41.5951,-72.6454,12.62,93,40,2.57,US,1715681304
455,funafuti,-8.5243,179.1942,29.33,76,98,6.59,TV,1715681304
456,wellington,-41.2866,174.7756,12.81,90,75,5.66,NZ,1715681054
457,labrador city,52.9463,-66.9114,5.88,67,99,2.51,CA,1715681305
458,tamanrasset,22.785,5.5228,31.95,7,0,3.09,DZ,1715681305
459,taveta,-3.3963,37.6736,27.11,59,90,3.71,KE,1715681305
460,altai,46.3722,96.2583,17.69,24,95,10.8,MN,1715681306
461,hinton,53.4001,-117.5857,4.79,93,45,1.7,CA,1715681053
462,san patricio,28.017,-97.5169,23.25,90,36,1.67,US,1715681306
463,nova sintra,14.8667,-24.7167,20.52,78,4,9.31,CV,1715681306
464,hanzhong,33.0728,107.0303,27.43,51,93,3.14,CN,1715681307
465,tsiombe,-25.3,45.4833,24.46,64,87,8.05,MG,1715681307
466,xinji,37.9028,115.2036,31.96,19,11,9.15,CN,1715681307
467,rongelap,11.1635,166.8941,27.3,85,96,9.15,MH,1715681307
468,shenkursk,62.1091,42.896,5.7,63,88,1.27,RU,1715681307
469,misratah,32.3754,15.0925,31.07,26,27,7.42,LY,1715681211
470,chokwe,-24.5333,32.9833,26.22,55,74,3.42,MZ,1715681308
471,sao sebastiao do passe,-12.5125,-38.4953,25.75,94,26,0.34,BR,1715681308
472,katabu,-4.9333,122.5167,25.61,91,84,2.06,ID,1715681308
473,oum hadjer,13.2954,19.6966,41.59,8,61,6.25,TD,1715681308
474,barra de santo antonio,-9.4047,-35.5072,25.6,84,49,1.0,BR,1715681308
475,benguela,-12.5763,13.4055,29.05,65,59,3.16,AO,1715681309
476,geraldton,-28.7667,114.6,23.23,60,90,7.2,AU,1715681230
477,santana,-0.0583,-51.1817,25.1,94,100,1.54,BR,1715681309
478,myitkyina,25.3833,97.4,39.35,23,28,1.24,MM,1715681242
479,pisco,-13.7,-76.2167,17.03,82,77,1.54,PE,1715681310
480,fisterra,42.9049,-9.2629,13.75,74,22,9.03,ES,1715681310
481,dolinsk,47.35,142.8,10.64,66,99,5.38,RU,1715681271
482,faya-largeau,17.9257,19.1043,38.78,10,42,9.97,TD,1715681310
483,saint-joseph,-21.3667,55.6167,27.21,67,49,5.3,RE,1715681311
484,glace bay,46.1969,-59.957,7.72,89,37,3.13,CA,1715681311
485,boende,-0.2167,20.8667,29.3,64,99,2.25,CD,1715681058
486,mil'kovo,55.6078,37.7956,12.41,53,90,2.48,RU,1715681311
487,achinsk,56.2694,90.4993,26.5,21,0,5.36,RU,1715681312
488,tra vinh,9.9347,106.3453,32.16,60,96,4.28,VN,1715681312
489,arkalyk,50.2486,66.9114,18.45,54,100,4.09,KZ,1715681312
490,dowlatabad,32.7998,51.6955,28.82,16,40,9.26,IR,1715681312
491,salinas,36.6777,-121.6555,11.66,89,100,2.57,US,1715681312
492,uturoa,-16.7333,-151.4333,27.6,67,95,9.66,PF,1715681313
493,yass,-34.8333,148.9167,11.13,86,0,1.41,AU,1715681314
494,paragominas,-2.9667,-47.4833,23.37,98,96,1.03,BR,1715681314
495,gisborne,-38.6533,178.0042,10.95,83,100,2.74,NZ,1715680728
496,nanzhang chengguanzhen,31.7839,111.8275,30.03,48,91,2.29,CN,1715681315
497,mocimboa,-11.3167,40.35,28.28,61,14,5.48,MZ,1715681315
498,prince rupert,54.3161,-130.3201,8.38,93,100,3.64,CA,1715681315
499,nuku'alofa,-21.1333,-175.2,25.19,83,75,5.66,TO,1715681050
500,dragalina,44.4333,27.3167,19.3,47,68,2.17,RO,1715681315
501,mangrol,21.1167,70.1167,32.07,61,9,7.32,IN,1715681315
502,shendi,16.6915,33.4341,40.99,13,11,7.98,SD,1715681029
503,lander,42.833,-108.7307,11.45,43,20,3.09,US,1715681316
504,khovd,48.0056,91.6419,23.45,24,97,3.6,MN,1715681316
505,sumberpucung,-8.1586,112.4829,24.5,88,31,1.58,ID,1715681316
506,eirunepe,-6.6603,-69.8736,21.72,99,100,1.04,BR,1715681316
507,ad dabbah,18.05,30.95,38.96,8,0,6.74,SD,1715681317
508,chibougamau,49.9168,-74.3659,8.79,100,100,1.54,CA,1715681317
509,gemena,3.25,19.7667,21.77,99,100,2.81,CD,1715681058
510,zetea,46.3833,25.3667,13.58,51,93,2.28,RO,1715681317
511,saint croix,17.7397,-64.7388,25.53,86,99,0.45,VI,1715681317
512,lusambo,-4.9667,23.45,31.66,53,98,1.25,CD,1715681317
513,pathein,16.7833,94.7333,36.38,38,53,6.91,MM,1715681318
514,pembroke,45.8168,-77.1162,10.66,92,90,1.77,CA,1715681318
515,austin,30.2672,-97.7431,20.4,88,0,1.54,US,1715681108
516,abu jibeha,11.4562,31.2285,39.77,11,92,1.83,SD,1715681318
517,son la,21.3167,103.9,28.22,63,87,1.17,VN,1715681059
518,mbandaka,0.0487,18.2603,24.55,91,100,3.67,CD,1715681058
519,vernon,50.2581,-119.2691,10.42,89,48,0.45,CA,1715681149
520,ambon,-3.6954,128.1814,28.26,95,40,0.51,ID,1715681320
521,kansanshi,-12.0951,26.4273,26.19,42,34,3.72,ZM,1715681320
522,saucillo,28.0167,-105.2833,16.79,17,77,0.82,MX,1715681320
523,ginir,7.1333,40.7,22.71,62,99,3.27,ET,1715681058
524,pytalovo,57.0679,27.9138,15.37,53,77,2.16,RU,1715681321
525,lorengau,-2.0226,147.2712,25.63,93,100,0.99,PG,1715681321
526,richards bay,-28.783,32.0377,25.46,61,30,3.58,ZA,1715681321
527,wanning,18.8003,110.3967,27.54,83,51,2.97,CN,1715681321
528,pervomayskoye,43.919,46.7102,17.11,43,100,1.68,RU,1715681047
529,suva,-18.1416,178.4415,24.71,94,75,4.12,FJ,1715681028
530,boysun,38.2061,67.1986,28.77,13,74,2.91,UZ,1715681322
531,usogorsk,63.4106,48.6872,-1.3,92,100,2.52,RU,1715681322
532,fang,19.9169,99.2145,30.69,52,47,1.94,TH,1715681322
533,samfya,-11.3649,29.5565,26.39,46,37,3.78,ZM,1715681322
534,sumenep,-7.0167,113.8667,27.92,76,55,3.32,ID,1715681323
535,northam,51.0333,-4.2167,16.48,84,70,8.69,GB,1715681323
536,hirara,24.8,125.2833,21.92,100,75,0.51,JP,1715681155
537,brisas de zicatela,15.8369,-97.0419,27.3,67,100,2.19,MX,1715681323
538,aykhal,66.0,111.5,1.84,93,100,11.83,RU,1715681324
539,puerto pilon,9.3644,-79.7933,27.1,92,98,2.25,PA,1715681324
540,san martin,-33.081,-68.4681,3.58,76,95,2.17,AR,1715681324
541,zorgo,12.2489,-0.6158,32.72,46,83,3.96,BF,1715681028
542,imbituba,-28.24,-48.6703,14.91,93,100,4.56,BR,1715681325
543,villa corzo,16.1667,-93.25,21.83,94,98,1.34,MX,1715681325
544,tabas,33.5959,56.9244,36.04,15,85,2.96,IR,1715681325
545,longgang,37.6508,120.3286,19.19,62,30,5.86,CN,1715681325
546,akrehamn,59.2667,5.1833,21.14,28,0,10.29,NO,1715681326
547,hammerfest,70.6634,23.6821,11.25,71,75,2.06,NO,1715681326
548,marsala,37.7966,12.4352,28.3,68,99,4.89,IT,1715681326
549,yung shue wan,22.2333,114.1167,27.96,66,3,0.45,HK,1715681326
550,pavlodar,52.3,76.95,19.89,60,40,6.0,KZ,1715681326
551,iskateley,67.6803,53.1512,-0.55,87,30,4.47,RU,1715681327
552,bondo,3.8146,23.6866,30.71,52,97,3.0,CD,1715681058
553,askoy,60.4092,5.226,22.75,33,0,5.66,NO,1715681327
554,las choapas,17.9333,-94.0833,27.82,68,80,2.51,MX,1715681327
555,mont-dore,-22.2833,166.5833,21.99,89,4,3.44,NC,1715681327
556,sisimiut,66.9395,-53.6735,-6.43,77,18,4.18,GL,1715681327
557,palangkaraya,-2.2,113.8333,26.98,89,76,1.33,ID,1715680909
558,huambo,-12.7761,15.7392,27.24,28,31,1.1,AO,1715681328
559,villa regina,-39.1,-67.0667,3.5,65,16,1.83,AR,1715681328
560,claveria,18.6074,121.0832,27.58,89,91,3.38,PH,1715681328
561,puerto armuelles,8.2833,-82.8667,26.72,77,100,1.79,PA,1715681328
562,semenov,56.7875,44.493,11.93,36,89,1.43,RU,1715681329
563,naliya,23.2667,68.8333,35.75,38,0,6.37,IN,1715681329
564,corner brook,48.9667,-57.9484,6.83,84,5,1.53,CA,1715681329
565,tolanaro,-25.0319,46.9987,24.03,73,88,4.82,MG,1715681329
566,souillac,-20.5167,57.5167,27.97,61,40,4.63,MU,1715681331
567,flying fish cove,-10.4217,105.6791,26.82,89,75,3.09,CX,1715681331
568,akjoujt,19.6969,-14.4164,34.8,12,33,6.1,MR,1715681331
569,peniche,39.3558,-9.3811,17.94,69,97,8.06,PT,1715681332
570,escalquens,43.5174,1.5589,12.84,95,100,3.08,FR,1715681332
571,sao paulo de olivenca,-3.3783,-68.8725,23.12,99,80,0.78,BR,1715681332
572,zaozersk,69.4005,32.4476,4.83,99,100,3.79,RU,1715681332
573,talara,-4.5772,-81.2719,20.91,78,64,6.55,PE,1715681333
574,murzuq,25.9155,13.9184,32.94,12,25,6.62,LY,1715681333
575,oak hill,37.9723,-81.1487,14.71,85,100,2.03,US,1715681333
576,chipinge,-20.1883,32.6236,20.1,63,23,4.05,ZW,1715681333
577,villa gesell,-37.2639,-56.973,8.77,68,100,6.93,AR,1715681333
578,palmer,42.1584,-72.3287,12.34,79,100,2.57,US,1715681333
579,saint-philippe,-21.3585,55.7679,27.77,70,65,4.95,RE,1715681334
580,pama,11.2497,0.7075,33.68,42,100,2.32,BF,1715681038
581,pontianak,-0.0333,109.3333,27.99,88,75,2.57,ID,1715681334
582,itamaraju,-17.0392,-39.5311,22.63,86,4,1.24,BR,1715681334
